[
 {"name":"扎囊县,"id":"542222"","longitude":91.33,"latitude":29.25},                                        
 {"name":"贡嘎县,"id":"542223"","longitude":90.98,"latitude":29.30},                                        
 {"name":"桑日县,"id":"542224"","longitude":92.02,"latitude":29.27},                                        
 {"name":"琼结县,"id":"542225"","longitude":91.68,"latitude":29.03},                                        
 {"name":"曲松县,"id":"542226"","longitude":92.20,"latitude":29.07},                                        
 {"name":"措美县,"id":"542227"","longitude":91.43,"latitude":28.43},                                        
 {"name":"洛扎县,"id":"542228"","longitude":90.87,"latitude":28.38},                                        
 {"name":"加查县,"id":"542229"","longitude":92.58,"latitude":29.15},                                        
 {"name":"隆子县,"id":"542231"","longitude":92.47,"latitude":28.42},                                        
 {"name":"错那县,"id":"542232"","longitude":91.95,"latitude":28.00},                                        
 {"name":"浪卡子县,"id":"542233"","longitude":90.40,"latitude":28.97}
]