[
	                                                            
{"name":"个旧市","id":"532501","longitude":103.15,"latitude":23.37},                                      
{"name":"开远市","id":"532502","longitude":103.27,"latitude":23.72},                                        
{"name":"屏边苗族自治县","id":"532523","longitude":103.68,"latitude":22.98},                                
{"name":"建水县","id":"532524","longitude":102.83,"latitude":23.62},                              
{"name":"石屏县","id":"532525","longitude":102.50,"latitude":23.72},                                   
{"name":"泸西县","id":"532527","longitude":103.77,"latitude":24.53},                              
{"name":"元阳县","id":"532528","longitude":102.83,"latitude":23.23},                                    
{"name":"红河县","id":"532529","longitude":102.42,"latitude":23.37},                                     
{"name":"绿春县","id":"532531","longitude":102.40,"latitude":23.00},                                        
{"name":"河口瑶族自治县","id":"532532","longitude":103.97,"latitude":22.52}  
 
]