[
	                                                            
{"name":"楚雄市","id":"532301","longitude":101.55,"latitude":25.03},                                      
{"name":"双柏县","id":"532322","longitude":101.63,"latitude":24.70},                                    
{"name":"牟定县","id":"532323","longitude":101.53,"latitude":25.32},                                     
{"name":"南华县","id":"532324","longitude":101.27,"latitude":25.20},                                     
{"name":"姚安县","id":"532325","longitude":101.23,"latitude":25.50},                                     
{"name":"大姚县","id":"532326","longitude":101.32,"latitude":25.73},                                      
{"name":"永仁县","id":"532327","longitude":101.67,"latitude":26.07},                                    
{"name":"元谋县","id":"532328","longitude":101.88,"latitude":25.70},                                   
{"name":"武定县","id":"532329","longitude":102.40,"latitude":25.53},                                     
{"name":"禄丰县","id":"532331","longitude":102.08,"latitude":25.15}
 
]