[
{"name":"隆阳区","id":"530502","longitude":99.17,"latitude":25.12},
{"name":"施甸县","id":"530521","longitude":99.18,"latitude":24.73},
{"name":"腾冲县","id":"530522","longitude":98.50,"latitude":25.03},
{"name":"龙陵县","id":"530523","longitude":98.68,"latitude":24.58},
{"name":"昌宁县","id":"530524","longitude":99.60,"latitude":24.83}
]